{"lat":49.2843841,"lon":-123.1088901,"timestamp":"2018-02-01T22:41:54.000-08:00","amenity":"clock","tags":{"wheelchair":"yes","addr:housenumber":"305","historic":"monument","visibility":"street","display":"analog","tourism":"attraction","addr:street":"Water Street","wikipedia":"en:Steam clock#Gastown steam clock","wikidata":"Q477663","support":"ground"},"name":"Gastown Steam Clock","interesting_heuristic":1.0,"location_cluster":4.0}
{"lat":49.2805916,"lon":-123.1207429,"timestamp":"2018-07-13T20:45:55.000-07:00","amenity":"nightclub","tags":{"website":"http:\/\/www.commodoreballroom.ca\/","source":"website","addr:postcode":"V6Z 1K3","capacity":"990","addr:housenumber":"868","old_name":"Commodore Cabaret","phone":"+1-604-739-4550","addr:street":"Granville Street","wikipedia":"en:Commodore Ballroom","wikidata":"Q5153212","leisure":"music_venue","start_date":"1929"},"name":"Commodore Ballroom","interesting_heuristic":0.9695883875,"location_cluster":1.0}
{"lat":49.2876052,"lon":-123.1242165,"timestamp":"2019-03-22T02:54:39.000-07:00","amenity":"college","tags":{"wikidata":"Q4806022","website":"https:\/\/www.ashtoncollege.ca\/vancouver-campus\/"},"name":"Ashton College","interesting_heuristic":0.85747641,"location_cluster":9.0}
{"lat":49.2786691,"lon":-123.1264603,"timestamp":"2018-10-14T19:44:40.000-07:00","amenity":"cinema","tags":{"addr:housenumber":"1131","website":"http:\/\/www.thecinematheque.ca\/","internet_access":"wlan","old_name":"Pacific Cinematheque","phone":"+1-604-688-3456","addr:street":"Howe Street","addr:postcode":"V6Z 2L7","wikidata":"Q7122345"},"name":"The Cinematheque","interesting_heuristic":0.8101664587,"location_cluster":5.0}
{"lat":49.2905053,"lon":-123.13656,"timestamp":"2018-08-22T06:40:17.000-07:00","amenity":"library","tags":{"wheelchair":"yes","addr:housenumber":"870","website":"http:\/\/www.vpl.ca\/branches\/details\/joe_fortes_branch","internet_access":"wlan","phone":"+1-604-665-3972","opening_hours":"Mo, Tu, Th 10:00-21:00; We, Fr 10:00-18:00; Sa 10:00-17:00; Su 13:00-17:00","addr:street":"Denman Street"},"name":"VPL Joe Fortes Branch","interesting_heuristic":0.5405564106,"location_cluster":7.0}
{"lat":49.2846387,"lon":-123.1143808,"timestamp":"2018-12-09T19:18:42.000-08:00","amenity":"social_facility","tags":{"website":"http:\/\/www.shanti-centre.com","contact:phone":"+1-604-773-3100","contact:email":"request-info@shanti-centre.com","addr:unit":"628","social_facility":"outreach"},"name":"Shanti Counselling Centre","interesting_heuristic":0.5405564106,"location_cluster":3.0}
{"lat":49.2787678,"lon":-123.1092628,"timestamp":"2016-05-18T07:19:58.000-07:00","amenity":"food_court","tags":{"wheelchair":"yes"},"name":"Costco Food Court","interesting_heuristic":0.336932005,"location_cluster":0.0}