{"lat":49.2843841,"lon":-123.1088901,"timestamp":"2018-02-01T22:41:54.000-08:00","amenity":"clock","tags":{"wheelchair":"yes","addr:housenumber":"305","historic":"monument","visibility":"street","display":"analog","tourism":"attraction","addr:street":"Water Street","wikipedia":"en:Steam clock#Gastown steam clock","wikidata":"Q477663","support":"ground"},"name":"Gastown Steam Clock","interesting_heuristic":1.0,"location_cluster":4.0}
{"lat":49.2805916,"lon":-123.1207429,"timestamp":"2018-07-13T20:45:55.000-07:00","amenity":"nightclub","tags":{"website":"http:\/\/www.commodoreballroom.ca\/","source":"website","addr:postcode":"V6Z 1K3","capacity":"990","addr:housenumber":"868","old_name":"Commodore Cabaret","phone":"+1-604-739-4550","addr:street":"Granville Street","wikipedia":"en:Commodore Ballroom","wikidata":"Q5153212","leisure":"music_venue","start_date":"1929"},"name":"Commodore Ballroom","interesting_heuristic":0.9696407249,"location_cluster":8.0}
{"lat":49.2766458,"lon":-123.1421577,"timestamp":"2019-03-22T02:48:01.000-07:00","amenity":"theatre","tags":{"addr:housenumber":"1695","website":"https:\/\/bardonthebeach.org\/","phone":"+1-604-737-0625","addr:street":"Whyte Avenue","source":"Bing","wikidata":"Q807984"},"name":"Bard On The Beach (Summer Only)","interesting_heuristic":0.8539478204,"location_cluster":7.0}
{"lat":49.2905053,"lon":-123.13656,"timestamp":"2018-08-22T06:40:17.000-07:00","amenity":"library","tags":{"wheelchair":"yes","addr:housenumber":"870","website":"http:\/\/www.vpl.ca\/branches\/details\/joe_fortes_branch","internet_access":"wlan","phone":"+1-604-665-3972","opening_hours":"Mo, Tu, Th 10:00-21:00; We, Fr 10:00-18:00; Sa 10:00-17:00; Su 13:00-17:00","addr:street":"Denman Street"},"name":"VPL Joe Fortes Branch","interesting_heuristic":0.5405855893,"location_cluster":9.0}
{"lat":49.2846387,"lon":-123.1143808,"timestamp":"2018-12-09T19:18:42.000-08:00","amenity":"social_facility","tags":{"website":"http:\/\/www.shanti-centre.com","contact:phone":"+1-604-773-3100","contact:email":"request-info@shanti-centre.com","addr:unit":"628","social_facility":"outreach"},"name":"Shanti Counselling Centre","interesting_heuristic":0.5405855893,"location_cluster":2.0}
{"lat":49.2819972,"lon":-123.1334555,"timestamp":"2019-03-22T02:51:05.000-07:00","amenity":"restaurant","tags":{"delivery":"yes","website":"https:\/\/www.downtownsushibar.com\/","internet_access":"wlan","cuisine":"sushi","source":"survey","addr:postcode":"V6E 1N4","takeaway":"yes","addr:city":"Vancouver","diet:vegetarian":"yes","addr:housenumber":"1205","phone":"+1-604-689-2833","smoking":"no","opening_hours":"Mo-Th 11:30-23:00; Fr-Su 11:30-23:30","addr:street":"Davie Street","email":"info@downtownsushibar.com"},"name":"Downtown Sushi Bar","interesting_heuristic":0.5397889916,"location_cluster":3.0}
{"lat":49.2787678,"lon":-123.1092628,"timestamp":"2016-05-18T07:19:58.000-07:00","amenity":"food_court","tags":{"wheelchair":"yes"},"name":"Costco Food Court","interesting_heuristic":0.3369501922,"location_cluster":0.0}